{"type":"FeatureCollection","features":[{"type":"Feature","properties":{"Name":"Admiral Theatre","Neighborhood":"","type":"Cinema","Address":"2343 California Ave SW Seattle WA 98116"},"geometry":{"type":"Point","coordinates":[-122.3869421,47.5819689]}},{"type":"Feature","properties":{"Name":"AMC Pacific Place 11","Neighborhood":"","type":"Cinema","Address":"600 Pine St #400 Seattle WA 98101"},"geometry":{"type":"Point","coordinates":[-122.3352762,47.61287415]}},{"type":"Feature","properties":{"Name":"Ark Lodge Cinemas","Neighborhood":"Columbia City","type":"Cinema","Address":"4816 Rainer Ave South Seattle WA 98118"},"geometry":{"type":"Point","coordinates":[-122.285612,47.559012]}},{"type":"Feature","properties":{"Name":"Central Cinema","Neighborhood":"Central District","type":"Cinema","Address":"1411 21st Ave Seattle WA 98122"},"geometry":{"type":"Point","coordinates":[-122.3051662,47.6132215]}},{"type":"Feature","properties":{"Name":"Cinerama","Neighborhood":"Belltown","type":"Cinema","Address":"2100 4th Ave Seattle WA 98121"},"geometry":{"type":"Point","coordinates":[-122.3413991,47.6141557]}},{"type":"Feature","properties":{"Name":"Egyptian Theater","Neighborhood":"","type":"Cinema","Address":"805 East Pine St Seattle WA 98122"},"geometry":{"type":"Point","coordinates":[-122.3217473,47.6149531]}},{"type":"Feature","properties":{"Name":"Nortthwest Film Forum","Neighborhood":"Capitol Hill","type":"Cinema","Address":"1515 12th Ave Seattle WA 98122"},"geometry":{"type":"Point","coordinates":[-122.317071,47.6144138]}},{"type":"Feature","properties":{"Name":"Regal Meridian 16","Neighborhood":"","type":"Cinema","Address":"1501 7th Ave Seattle WA 98101"},"geometry":{"type":"Point","coordinates":[-122.3338683,47.6117662]}},{"type":"Feature","properties":{"Name":"The Big Picture","Neighborhood":"Belltown","type":"Cinema","Address":"2505 1st Ave Seattle WA 98121"},"geometry":{"type":"Point","coordinates":[-122.3492477,47.6146778]}},{"type":"Feature","properties":{"Name":"Three Dollar Bill Cinema","Neighborhood":"","type":"Cinema","Address":"1122 E. Pike St. #1313 Seattle WA 98122"},"geometry":{"type":"Point","coordinates":[-122.317245,47.614273]}},{"type":"Feature","properties":{"Name":"METHOD Gallery","Neighborhood":"Pioneer Square","type":"Visual","Address":"106 Third Ave S"},"geometry":{"type":"Point","coordinates":[-122.330209,47.601458]}},{"type":"Feature","properties":{"Name":"57 Biscayne","Neighborhood":"Pioneer Square","type":"Visual","Address":"110 Cherry St #200 Seattle WA 98104"},"geometry":{"type":"Point","coordinates":[-122.3338684,47.6028497]}},{"type":"Feature","properties":{"Name":"7 Point Studio and The Boro School","Neighborhood":"Chinatown International District","type":"Visual","Address":"1300 S Dearborn St Seattle WA 98144"},"geometry":{"type":"Point","coordinates":[-122.315567,47.596252]}},{"type":"Feature","properties":{"Name":"Art/Not Terminal Gallery","Neighborhood":"South Lake Union","type":"Visual","Address":"2045 Westlake Ave Seattle WA 98121"},"geometry":{"type":"Point","coordinates":[-122.338453,47.6158592]}},{"type":"Feature","properties":{"Name":"Abmeyer + Wood Fine Art","Neighborhood":"Downtown","type":"Visual","Address":"1210 2nd Ave Seattle WA 98101"},"geometry":{"type":"Point","coordinates":[-122.3364073,47.6070478]}},{"type":"Feature","properties":{"Name":"Ace Studios Gallery","Neighborhood":"","type":"Visual","Address":"619 Western Ave 3rd Fl Seattle WA 98104"},"geometry":{"type":"Point","coordinates":[-122.3358275,47.6023356]}},{"type":"Feature","properties":{"Name":"Alki Arts","Neighborhood":"Downtown","type":"Visual","Address":"55 University Seattle WA 98101"},"geometry":{"type":"Point","coordinates":[-122.3395432,47.6060923]}},{"type":"Feature","properties":{"Name":"All Metal Arts Hazardfactory","Neighborhood":"South Park","type":"Visual","Address":"7800 7th Ave South Seattle WA 98108"},"geometry":{"type":"Point","coordinates":[-122.3338965,47.5997442]}},{"type":"Feature","properties":{"Name":"Art Stall Gallery","Neighborhood":"","type":"Visual","Address":"97 Pike Pl Seattle WA 98101"},"geometry":{"type":"Point","coordinates":[-122.3418366,47.6094497]}},{"type":"Feature","properties":{"Name":"Art Xchange Gallery","Neighborhood":"Pioneer Square","type":"Visual","Address":"512 1st Ave S Seattle WA 98104"},"geometry":{"type":"Point","coordinates":[-122.3339034,47.5979017]}},{"type":"Feature","properties":{"Name":"Artforte Gallery","Neighborhood":"","type":"Visual","Address":"307 Occidental Ave S Seattle WA 98104"},"geometry":{"type":"Point","coordinates":[-122.3331316,47.5998538]}},{"type":"Feature","properties":{"Name":"Azuma Gallery","Neighborhood":"","type":"Visual","Address":"530 1st Ave South Seattle WA 98104"},"geometry":{"type":"Point","coordinates":[-122.3339613,47.5975149]}},{"type":"Feature","properties":{"Name":"Bonfire at Panama Hotel","Neighborhood":"","type":"Visual","Address":"603 South Main Street Seattle WA 98104"},"geometry":{"type":"Point","coordinates":[-122.326102,47.60003]}},{"type":"Feature","properties":{"Name":"Brooke Westlund Studio + Gallery","Neighborhood":"Pike Market","type":"Visual","Address":"1516 Western Ave Seattle WA 98101"},"geometry":{"type":"Point","coordinates":[-122.3413696,47.6088638]}},{"type":"Feature","properties":{"Name":"Bryan Ohno Gallery","Neighborhood":"","type":"Visual","Address":"521 S Main St Seattle WA 98104"},"geometry":{"type":"Point","coordinates":[-122.3267574,47.5999167]}},{"type":"Feature","properties":{"Name":"C Art Gallery in Artspace Hiawatha Lofts","Neighborhood":"Central District","type":"Visual","Address":"855 Hiawatha Pl S Seattle WA 98144"},"geometry":{"type":"Point","coordinates":[-122.3095312,47.594554]}},{"type":"Feature","properties":{"Name":"Calypte Gallery","Neighborhood":"","type":"Visual","Address":"1107 East Denny Way #A2 Seattle WA 98122"},"geometry":{"type":"Point","coordinates":[-122.317818,47.618587]}},{"type":"Feature","properties":{"Name":"Canlis Glass","Neighborhood":"Uptown","type":"Visual","Address":"3131 Western Ave #329 Seattle WA 98121"},"geometry":{"type":"Point","coordinates":[-122.3577413,47.6182617]}},{"type":"Feature","properties":{"Name":"Cassandria Blackmore Studio","Neighborhood":"","type":"Visual","Address":"1115 East Pike St Seattle WA 98122"},"geometry":{"type":"Point","coordinates":[-122.3174302,47.6139358]}},{"type":"Feature","properties":{"Name":"Christian Grevstad Gallery","Neighborhood":"","type":"Visual","Address":"312 Occidental Ave S Seattle WA 98104"},"geometry":{"type":"Point","coordinates":[-122.3326934,47.5995076]}},{"type":"Feature","properties":{"Name":"City Hall Lobby Gallery & Anne Focke Gallery","Neighborhood":"Downtown","type":"Visual","Address":"600 4th Ave Seattle WA 98104"},"geometry":{"type":"Point","coordinates":[-122.3300938,47.6038849]}},{"type":"Feature","properties":{"Name":"CoCA","Neighborhood":"Georgetown","type":"Visual","Address":"5701 6th Ave S #258 Seattle WA 98108"},"geometry":{"type":"Point","coordinates":[-122.3283134,47.5514664]}},{"type":"Feature","properties":{"Name":"Color 1 Photo","Neighborhood":"Pioneer Square","type":"Visual","Address":"411 2nd Avenue Ext. S Seattle WA 98104"},"geometry":{"type":"Point","coordinates":[-122.331575,47.599017]}},{"type":"Feature","properties":{"Name":"Conrow Porcelain Studio","Neighborhood":"","type":"Visual","Address":"1429 34th Ave Seattle WA 98122"},"geometry":{"type":"Point","coordinates":[-122.2895678,47.613737]}},{"type":"Feature","properties":{"Name":"Contactcreate","Neighborhood":"Beacon Hill","type":"Visual","Address":"928 13th Ave Seattle WA 98122"},"geometry":{"type":"Point","coordinates":[-122.315128,47.611258]}},{"type":"Feature","properties":{"Name":"Davidson Galleries","Neighborhood":"Pioneer Square","type":"Visual","Address":"313 Occidental Ave S Seattle WA 98104"},"geometry":{"type":"Point","coordinates":[-122.3331168,47.5995312]}},{"type":"Feature","properties":{"Name":"Edd Cox Fine Art","Neighborhood":"Pioneer Square","type":"Visual","Address":"313 1st Ave S Seattle WA 98104"},"geometry":{"type":"Point","coordinates":[-122.3345636,47.5995772]}},{"type":"Feature","properties":{"Name":"Eight and Sand Gallery","Neighborhood":"Georgetown","type":"Visual","Address":"5840 Airport Way S Suite 212 Seattle WA 98108"},"geometry":{"type":"Point","coordinates":[-122.318612,47.550962]}},{"type":"Feature","properties":{"Name":"Elderwise","Neighborhood":"First Hill","type":"Visual","Address":"900 University St Seattle WA 98101"},"geometry":{"type":"Point","coordinates":[-122.329353,47.610928]}},{"type":"Feature","properties":{"Name":"Emerald City Fired Arts Studio and Gallery","Neighborhood":"Mt. Baker","type":"Visual","Address":"3333 Rainer Ave S Suite A Seattle WA 98144"},"geometry":{"type":"Point","coordinates":[-122.294708,47.572998]}},{"type":"Feature","properties":{"Name":"Ethnic Heritage Art Gallery at Seattle Municipal Tower","Neighborhood":"Downtown","type":"Visual","Address":"700 5th Ave Seattle WA 98104"},"geometry":{"type":"Point","coordinates":[-122.3295729,47.60501625]}},{"type":"Feature","properties":{"Name":"Fetherston Gallery (CLOSED)","Neighborhood":"","type":"Visual","Address":"5701 6th Ave S, Seattle WA 98108"},"geometry":{"type":"Point","coordinates":[-122.3283134,47.5514664]}},{"type":"Feature","properties":{"Name":"Flatcolor Gallery","Neighborhood":"","type":"Visual","Address":"77 S. Main St. Seattle WA 98104"},"geometry":{"type":"Point","coordinates":[-122.3353103,47.5999356]}},{"type":"Feature","properties":{"Name":"Flury and Company","Neighborhood":"","type":"Visual","Address":"322 1st Ave S Seattle WA 98104"},"geometry":{"type":"Point","coordinates":[-122.3339158,47.5993435]}},{"type":"Feature","properties":{"Name":"Form/Space Atelier","Neighborhood":"Belltown","type":"Visual","Address":"2407 1st Ave Seattle WA 98121"},"geometry":{"type":"Point","coordinates":[-122.348419,47.6142042]}},{"type":"Feature","properties":{"Name":"Foster/White Gallery","Neighborhood":"Pioneer Square","type":"Visual","Address":"220 3rd Ave S Seattle WA 98104"},"geometry":{"type":"Point","coordinates":[-122.3299406,47.6002759]}},{"type":"Feature","properties":{"Name":"Frame Central/North West Framing Cloud Gallery","Neighborhood":"Capitol Hill","type":"Visual","Address":"901 E Pike St Seattle WA 98122"},"geometry":{"type":"Point","coordinates":[-122.3203375,47.613902]}},{"type":"Feature","properties":{"Name":"Frye Art Museum","Neighborhood":"First Hill","type":"Visual","Address":"704 Terry Ave Seattle WA 98104"},"geometry":{"type":"Point","coordinates":[-122.3240443,47.60718365]}},{"type":"Feature","properties":{"Name":"Gallery 110 in Tashiro Kaplan","Neighborhood":"Pioneer Square","type":"Visual","Address":"110 3rd Ave S Seattle WA 98104"},"geometry":{"type":"Point","coordinates":[-122.330003,47.6012598]}},{"type":"Feature","properties":{"Name":"Gallery Context","Neighborhood":"Georgetown","type":"Visual","Address":"5701 Sixth Ave South Seattle WA 98108"},"geometry":{"type":"Point","coordinates":[-122.3283134,47.5514664]}},{"type":"Feature","properties":{"Name":"Gallery IMA","Neighborhood":"Pioneer Square","type":"Visual","Address":"123 S Jackson St Seattle WA 98104"},"geometry":{"type":"Point","coordinates":[-122.3331035,47.5989643]}},{"type":"Feature","properties":{"Name":"Georgetown Arts and Cultural Center","Neighborhood":"Georgetown","type":"Visual","Address":"5809 Airport Way S Seattle WA 98108"},"geometry":{"type":"Point","coordinates":[-122.3182596,47.5504345]}},{"type":"Feature","properties":{"Name":"Georgetown Trailer Park Mall","Neighborhood":"Georgetown","type":"Visual","Address":"5805 Airport Way S Seattle WA 98108"},"geometry":{"type":"Point","coordinates":[-122.3183935,47.55059151]}},{"type":"Feature","properties":{"Name":"Ghost Gallery","Neighborhood":"Capitol Hill","type":"Visual","Address":"504 E Denny Way Seattle WA 98122"},"geometry":{"type":"Point","coordinates":[-122.3249251,47.6186813]}},{"type":"Feature","properties":{"Name":"Glassbox","Neighborhood":"","type":"Visual","Address":"831 Seattle Blvd S Seattle WA 98134"},"geometry":{"type":"Point","coordinates":[-122.326235,47.595059]}},{"type":"Feature","properties":{"Name":"Greg Kucera Gallery","Neighborhood":"Pioneer Square","type":"Visual","Address":"212 3rd Ave S Seattle WA 98104"},"geometry":{"type":"Point","coordinates":[-122.3298023,47.6004217]}},{"type":"Feature","properties":{"Name":"Grover Thurston Gallery","Neighborhood":"Pioneer Square","type":"Visual","Address":"319 3rd Ave S Seattle WA 98104"},"geometry":{"type":"Point","coordinates":[-122.3305147,47.5994156]}},{"type":"Feature","properties":{"Name":"HeART, the Gallery","Neighborhood":"","type":"Visual","Address":"570 1st Ave A Seattle WA 98104"},"geometry":{"type":"Point","coordinates":[-122.3338311,47.5963028]}},{"type":"Feature","properties":{"Name":"Howard House","Neighborhood":"","type":"Visual","Address":"604 2nd Ave Seattle WA 98104"},"geometry":{"type":"Point","coordinates":[-122.3323144,47.602619]}},{"type":"Feature","properties":{"Name":"Interstitial","Neighborhood":"","type":"Visual","Address":"6007 12th Ave South 3rd Floor Seattle, WA 98108"},"geometry":{"type":"Point","coordinates":[-122.317596,47.548885]}},{"type":"Feature","properties":{"Name":"Jeffrey Moose Gallery","Neighborhood":"Downtown","type":"Visual","Address":"1333 5th Ave # 2 Seattle WA 98101"},"geometry":{"type":"Point","coordinates":[-122.3345412,47.6091917]}},{"type":"Feature","properties":{"Name":"Juan Alonso Studio","Neighborhood":"","type":"Visual","Address":"214 1st Ave S Suite B15 Seattle WA 98104"},"geometry":{"type":"Point","coordinates":[-122.333963,47.6004712]}},{"type":"Feature","properties":{"Name":"Kate Alkarni Gallery","Neighborhood":"Georgetown","type":"Visual","Address":"5701 6th Ave S Atrium Suite 221 Seattle WA 98108"},"geometry":{"type":"Point","coordinates":[-122.3283134,47.5514664]}},{"type":"Feature","properties":{"Name":"Kinsey Gallery","Neighborhood":"First Hill","type":"Visual","Address":"824 12th Ave Seattle WA 98122"},"geometry":{"type":"Point","coordinates":[-122.3163837,47.6100596]}},{"type":"Feature","properties":{"Name":"Krab Jab Studio","Neighborhood":"Georgetown","type":"Visual","Address":"5628 Airport Way South Ste 246 Seattle WA 98108"},"geometry":{"type":"Point","coordinates":[-122.3186879,47.5515231]}},{"type":"Feature","properties":{"Name":"L x W x H","Neighborhood":"Georgetown","type":"Visual","Address":"6007 12th Ave S Seattle WA 98108"},"geometry":{"type":"Point","coordinates":[-122.3174654,47.5488654]}},{"type":"Feature","properties":{"Name":"Laguna","Neighborhood":"Pioneer Square","type":"Visual","Address":"116 S. Washington St Seattle WA 98104"},"geometry":{"type":"Point","coordinates":[-122.333443,47.601051]}},{"type":"Feature","properties":{"Name":"Linda Hodges Gallery","Neighborhood":"Pioneer Square","type":"Visual","Address":"316 1st Ave S Seattle WA 98146"},"geometry":{"type":"Point","coordinates":[-122.333794,47.599457]}},{"type":"Feature","properties":{"Name":"Lisa Harris Gallery","Neighborhood":"Downtown","type":"Visual","Address":"1922 Pike Pl Seattle WA 98101"},"geometry":{"type":"Point","coordinates":[-122.3408128,47.6083293]}},{"type":"Feature","properties":{"Name":"Ltd. Art Gallery (CLOSED)","Neighborhood":"Capitol Hill","type":"Visual","Address":"307 E Pike St Seattle WA 98122"},"geometry":{"type":"Point","coordinates":[-122.3271174,47.6138928]}},{"type":"Feature","properties":{"Name":"M. Rosetta Hunter Art Gallery - Seattle Central Community College","Neighborhood":"","type":"Visual","Address":"1701 Broadway Seattle WA 98122"},"geometry":{"type":"Point","coordinates":[-122.321152,47.6169084]}},{"type":"Feature","properties":{"Name":"Martin-Zambito Fine Art","Neighborhood":"First Hill","type":"Visual","Address":"1117 Minor Ave Seattle WA 98101"},"geometry":{"type":"Point","coordinates":[-122.3254749,47.610901]}},{"type":"Feature","properties":{"Name":"MIA Gallery","Neighborhood":"Downtown","type":"Visual","Address":"1203 2nd Ave Seattle WA 98101"},"geometry":{"type":"Point","coordinates":[-122.3369157,47.6066246]}},{"type":"Feature","properties":{"Name":"Milagros Mexican Folk Art Gallery","Neighborhood":"","type":"Visual","Address":"Pike Place Market 1530 Post Alley Seattle WA 98101"},"geometry":{"type":"Point","coordinates":[-122.341213,47.609297]}},{"type":"Feature","properties":{"Name":"Municipal Tower Gallery","Neighborhood":"Downtown","type":"Visual","Address":"700 Fifth Ave 3rd Level Seattle WA 98104"},"geometry":{"type":"Point","coordinates":[-122.3295729,47.60501625]}},{"type":"Feature","properties":{"Name":"New Foundation","Neighborhood":"Central District","type":"Visual","Address":"312 2nd Ave South Seattle WA"},"geometry":{"type":"Point","coordinates":[-122.331177,47.599537]}},{"type":"Feature","properties":{"Name":"Northwest Woodworkers Gallery","Neighborhood":"Belltown","type":"Visual","Address":"2111 1st Ave Seattle WA 98121"},"geometry":{"type":"Point","coordinates":[-122.344463,47.6119449]}},{"type":"Feature","properties":{"Name":"Nupasa Art Studio & Gallery","Neighborhood":"","type":"Visual","Address":"5539 Airport Way S Seattle WA 98108"},"geometry":{"type":"Point","coordinates":[-122.320193,47.552562]}},{"type":"Feature","properties":{"Name":"Patricia Rovzar Gallery","Neighborhood":"Downtown","type":"Visual","Address":"1225 2nd Ave Seattle WA 98101"},"geometry":{"type":"Point","coordinates":[-122.3372059,47.6069251]}},{"type":"Feature","properties":{"Name":"Peter Miller Books","Neighborhood":"Belltown","type":"Visual","Address":"2326 2nd Ave Seattle WA 98121"},"geometry":{"type":"Point","coordinates":[-122.346108,47.614293]}},{"type":"Feature","properties":{"Name":"Photographic Center Northwest","Neighborhood":"Capitol Hill","type":"Visual","Address":"900 12th Ave Seattle WA 98122"},"geometry":{"type":"Point","coordinates":[-122.3163719,47.61056225]}},{"type":"Feature","properties":{"Name":"Pipsqueak","Neighborhood":"Central District","type":"Visual","Address":"173 16th Ave Seattle WA 98122"},"geometry":{"type":"Point","coordinates":[-122.3115241,47.6034343]}},{"type":"Feature","properties":{"Name":"Platform Gallery in Tashiro Kaplan","Neighborhood":"Pioneer Square","type":"Visual","Address":"114 3rd Ave S Seattle WA 98104"},"geometry":{"type":"Point","coordinates":[-122.3300592,47.601161]}},{"type":"Feature","properties":{"Name":"Pound Arts","Neighborhood":"Capitol Hill","type":"Visual","Address":"1216 10th Ave Seattle WA 98122"},"geometry":{"type":"Point","coordinates":[-122.3192097,47.6127484]}},{"type":"Feature","properties":{"Name":"Pratt Fine Arts Center","Neighborhood":"Central District","type":"Visual","Address":"1902 S Main St Seattle WA 98144"},"geometry":{"type":"Point","coordinates":[-122.30735,47.6003]}},{"type":"Feature","properties":{"Name":"Prographica Gallery","Neighborhood":"Madrona","type":"Visual","Address":"3419 E Denny Way Seattle WA 98122"},"geometry":{"type":"Point","coordinates":[-122.2880059,47.6182086]}},{"type":"Feature","properties":{"Name":"Prole Drift","Neighborhood":"","type":"Visual","Address":"523 S. Main St Seattle WA 98104"},"geometry":{"type":"Point","coordinates":[-122.32669,47.59985]}},{"type":"Feature","properties":{"Name":"RE Welch Gallery","Neighborhood":"Downtown","type":"Visual","Address":"1214 1st Ave Seattle WA 98101"},"geometry":{"type":"Point","coordinates":[-122.3374584,47.6065659]}},{"type":"Feature","properties":{"Name":"Reel Grrls","Neighborhood":"Central District","type":"Visual","Address":"1409 21st Ave Seattle WA 98122"},"geometry":{"type":"Point","coordinates":[-122.3051798,47.6131504]}},{"type":"Feature","properties":{"Name":"Room 104 Gallery (CLOSED) in Tashiro Kaplan","Neighborhood":"","type":"Visual","Address":"306 S. Washington St #104 Seattle WA 98104"},"geometry":{"type":"Point","coordinates":[-122.3298371,47.6010201]}},{"type":"Feature","properties":{"Name":"Roq La Rue Gallery","Neighborhood":"Pioneer Square","type":"Visual","Address":"532 1st Ave S. Seattle WA 98104"},"geometry":{"type":"Point","coordinates":[-122.3339422,47.5974306]}},{"type":"Feature","properties":{"Name":"Seattle Art Museum Olympic Sculture Park","Neighborhood":"Downtown","type":"Visual","Address":"2901 Western Ave Seattle WA 98121"},"geometry":{"type":"Point","coordinates":[-122.3538499,47.6163466]}},{"type":"Feature","properties":{"Name":"Seattle ArtREsource (CLOSED)","Neighborhood":"Pioneer Square","type":"Visual","Address":"625 1st Ave #200 Seattle WA 98104"},"geometry":{"type":"Point","coordinates":[-122.3344096,47.6024431]}},{"type":"Feature","properties":{"Name":"Seattle Presents: A Gallery","Neighborhood":"Downtown","type":"Visual","Address":"700 5th Avenue Suite 401 Seattle WA 98104"},"geometry":{"type":"Point","coordinates":[-122.3305147,47.5994156]}},{"type":"Feature","properties":{"Name":"Service League Harborview Medical Center Art Collection","Neighborhood":"","type":"Visual","Address":"325 9th Ave Seattle WA 98104"},"geometry":{"type":"Point","coordinates":[-122.323564,47.604249]}},{"type":"Feature","properties":{"Name":"SRG Gallery","Neighborhood":"","type":"Visual","Address":"110 Union St Suite 300 Seattle WA 98101"},"geometry":{"type":"Point","coordinates":[-122.3388114,47.6080964]}},{"type":"Feature","properties":{"Name":"Steinbrueck Native Gallery","Neighborhood":"Belltown","type":"Visual","Address":"2030 Western Ave Seattle WA 98121"},"geometry":{"type":"Point","coordinates":[-122.3444605,47.6112287]}},{"type":"Feature","properties":{"Name":"Stonington Gallery","Neighborhood":"","type":"Visual","Address":"125 S Jackson St Seattle WA 98104"},"geometry":{"type":"Point","coordinates":[-122.3331591,47.5989184]}},{"type":"Feature","properties":{"Name":"Swedish Hospital Art Collection","Neighborhood":"","type":"Visual","Address":"747 Broadway Seattle WA 98122"},"geometry":{"type":"Point","coordinates":[-122.3221023,47.6089681]}},{"type":"Feature","properties":{"Name":"The Alice Gallery","Neighborhood":"Georgetown","type":"Visual","Address":"6007 12th Ave South Seattle WA 98108 ï»¿"},"geometry":{"type":"Point","coordinates":[-122.317596,47.548885]}},{"type":"Feature","properties":{"Name":"The Color Group","Neighborhood":"SODO","type":"Visual","Address":"1741 4th Ave S Suite B Seattle WA 98134"},"geometry":{"type":"Point","coordinates":[-122.329559,47.586853]}},{"type":"Feature","properties":{"Name":"The Factory","Neighborhood":"","type":"Visual","Address":"1216 10th Ave Seattle WA 98122"},"geometry":{"type":"Point","coordinates":[-122.319368,47.612338]}},{"type":"Feature","properties":{"Name":"The Hillman City Collaboratory","Neighborhood":"Hillman City","type":"Visual","Address":"5623 Rainier Ave S Seattle WA 98118"},"geometry":{"type":"Point","coordinates":[-122.278043,47.551691]}},{"type":"Feature","properties":{"Name":"The Legacy Ltd","Neighborhood":"Downtown","type":"Visual","Address":"1003 1st Ave Seattle WA 98104"},"geometry":{"type":"Point","coordinates":[-122.336745,47.6048267]}},{"type":"Feature","properties":{"Name":"Threshold Gallery at Mithun","Neighborhood":"","type":"Visual","Address":"1201 Alaskan Way #200 Seattle WA 98101"},"geometry":{"type":"Point","coordinates":[-122.340225,47.605053]}},{"type":"Feature","properties":{"Name":"Traver Gallery","Neighborhood":"Downtown","type":"Visual","Address":"110 Union St #200 Seattle WA 98101"},"geometry":{"type":"Point","coordinates":[-122.3388114,47.6080964]}},{"type":"Feature","properties":{"Name":"True Love Art Gallery","Neighborhood":"Capitol Hill","type":"Visual","Address":"1525 Summit Ave Seattle WA 98122"},"geometry":{"type":"Point","coordinates":[-122.3257242,47.6149584]}},{"type":"Feature","properties":{"Name":"Twilight Artist Collective","Neighborhood":"West Seattle","type":"Visual","Address":"306 SW Alaska St Seattle WA 98116"},"geometry":{"type":"Point","coordinates":[-122.3854525,47.5610855]}},{"type":"Feature","properties":{"Name":"Vermillion Gallery","Neighborhood":"Capitol Hill","type":"Visual","Address":"1508 11th Ave Seattle WA 98122"},"geometry":{"type":"Point","coordinates":[-122.3179029,47.6144145]}},{"type":"Feature","properties":{"Name":"Vetri Glass Gallery","Neighborhood":"Downtown","type":"Visual","Address":"1404 1st Ave Seattle WA 98101"},"geometry":{"type":"Point","coordinates":[-122.3390359,47.6081315]}},{"type":"Feature","properties":{"Name":"Vignettes Gallery at El Capitan Apartments","Neighborhood":"","type":"Visual","Address":"1617 Yale Ave Seattle WA 98122"},"geometry":{"type":"Point","coordinates":[-122.328384,47.615807]}},{"type":"Feature","properties":{"Name":"Washington State Convention & Trade Center Gallery","Neighborhood":"","type":"Visual","Address":"800 Convention Place Second Floor Seattle WA 98101"},"geometry":{"type":"Point","coordinates":[-122.331472,47.611415]}},{"type":"Feature","properties":{"Name":"Wing Luke Museum","Neighborhood":"International District","type":"Visual","Address":"719 S King St Seattle WA 98104"},"geometry":{"type":"Point","coordinates":[-122.32286,47.59823]}},{"type":"Feature","properties":{"Name":"Woodside/Braseth Gallery","Neighborhood":"South Lake Union","type":"Visual","Address":"2101 9th Ave Seattle WA 98121"},"geometry":{"type":"Point","coordinates":[-122.3374413,47.6171641]}}]}