{"type":"FeatureCollection","features":[{"type":"Feature","properties":{"Name":"Alki Community Center","Neighborhood":"","type":"Community Center","Address":"5817 SW Stevens St Seattle WA 98116"},"geometry":{"type":"Point","coordinates":[-122.407364,47.577271]}},{"type":"Feature","properties":{"Name":"Asian Resource Center","Neighborhood":"","type":"Community Center","Address":"1025 South King St. Seattle WA 98104"},"geometry":{"type":"Point","coordinates":[-122.318398,47.597923]}},{"type":"Feature","properties":{"Name":"Central Area Senior Center","Neighborhood":"","type":"Community Center","Address":"500 30th Ave S Seattle WA 98144"},"geometry":{"type":"Point","coordinates":[-122.293854,47.597873]}},{"type":"Feature","properties":{"Name":"Chinese Information and Service Center","Neighborhood":"","type":"Community Center","Address":"611 S Lane St Seattle WA 98104"},"geometry":{"type":"Point","coordinates":[-122.325649,47.596665]}},{"type":"Feature","properties":{"Name":"Delridge Community Center & Hiawatha","Neighborhood":"","type":"Community Center","Address":"2700 California Ave SW Seattle WA 98116"},"geometry":{"type":"Point","coordinates":[-122.386637,47.579173]}},{"type":"Feature","properties":{"Name":"El Centro de la Raza","Neighborhood":"Beacon Hill","type":"Community Center","Address":"2524 16th Ave S Seattle WA 98144"},"geometry":{"type":"Point","coordinates":[-122.3112978,47.5803398]}},{"type":"Feature","properties":{"Name":"Eritrean Association in Greater Seattle","Neighborhood":"","type":"Community Center","Address":"1528 Valentine Pl S Seattle WA 98144"},"geometry":{"type":"Point","coordinates":[-122.3070771,47.58879805]}},{"type":"Feature","properties":{"Name":"Filipino Community Center","Neighborhood":"","type":"Community Center","Address":"5740 Martin Luther King Jr Way Seattle WA 98118"},"geometry":{"type":"Point","coordinates":[-122.287086,47.550125]}},{"type":"Feature","properties":{"Name":"Garfield Community Center","Neighborhood":"","type":"Community Center","Address":"2323 E Cherry St Seattle WA 98122"},"geometry":{"type":"Point","coordinates":[-122.302349,47.60801]}},{"type":"Feature","properties":{"Name":"Horn of Africa Services","Neighborhood":"","type":"Community Center","Address":"4714 Rainier Avenue South Suite 105 Seattle WA 98118"},"geometry":{"type":"Point","coordinates":[-122.286461,47.560077]}},{"type":"Feature","properties":{"Name":"ID/Chinatown Community Center","Neighborhood":"","type":"Community Center","Address":"719 8th Ave S Seattle WA 98104"},"geometry":{"type":"Point","coordinates":[-122.322446,47.596419]}},{"type":"Feature","properties":{"Name":"JCCCW Japanese Cultural & Community Center of WA","Neighborhood":"","type":"Community Center","Address":"1414 S Weller St Seattle WA 98144"},"geometry":{"type":"Point","coordinates":[-122.312012,47.597744]}},{"type":"Feature","properties":{"Name":"Jefferson Community Center","Neighborhood":"","type":"Community Center","Address":"3801 Beacon Ave S Seattle WA 98108"},"geometry":{"type":"Point","coordinates":[-122.307473,47.569634]}},{"type":"Feature","properties":{"Name":"Oromo Community Organization","Neighborhood":"","type":"Community Center","Address":"2718 S Jackson St Seattle WA 98144"},"geometry":{"type":"Point","coordinates":[-122.296595,47.599216]}},{"type":"Feature","properties":{"Name":"Rainier Chamber of Commerce & Rainier Chamber Foundation","Neighborhood":"Columbia City","type":"Community Center","Address":"5290 Rainer Ave S Seattle WA 98118"},"geometry":{"type":"Point","coordinates":[-122.281108,47.554125]}},{"type":"Feature","properties":{"Name":"Rainier Community Center","Neighborhood":"Columbia City","type":"Community Center","Address":"4600 38th Ave S Street Seattle Wa 98118"},"geometry":{"type":"Point","coordinates":[-122.284859,47.561654]}},{"type":"Feature","properties":{"Name":"Ravenna-Eckstein Community Center & Yesler","Neighborhood":"","type":"Community Center","Address":"917 E Yesler Way Seattle WA 98122"},"geometry":{"type":"Point","coordinates":[-122.320429,47.601715]}},{"type":"Feature","properties":{"Name":"Seattle Neighborhood Group","Neighborhood":"","type":"Community Center","Address":"1810 E. Yesler Way Seattle WA 98122"},"geometry":{"type":"Point","coordinates":[-122.308388,47.601849]}},{"type":"Feature","properties":{"Name":"Senior Center of West Seattle","Neighborhood":"","type":"Community Center","Address":"4217 SW Oregon St. Seattle WA 98116"},"geometry":{"type":"Point","coordinates":[-122.385849,47.562884]}},{"type":"Feature","properties":{"Name":"Seattle Metropolitan Police Museum","Neighborhood":"","type":"Education","Address":"317 3rd Ave South Seattle WA 98104"},"geometry":{"type":"Point","coordinates":[-122.33026,47.599653]}},{"type":"Feature","properties":{"Name":"Historic Seattle Dearborn House","Neighborhood":"","type":"Heritage","Address":"1117 Minor Ave Seattle WA 98101"},"geometry":{"type":"Point","coordinates":[-122.32547,47.610874]}},{"type":"Feature","properties":{"Name":"Klondike Gold Rush National Historic Park","Neighborhood":"","type":"Heritage","Address":"319 2nd Ave S Seattle WA 98104"},"geometry":{"type":"Point","coordinates":[-122.331978,47.599373]}},{"type":"Feature","properties":{"Name":"Log House Museum","Neighborhood":"West Seattle","type":"Heritage","Address":"3003 61st Ave SW Seattle WA 98116"},"geometry":{"type":"Point","coordinates":[-122.4109498,47.5775947]}},{"type":"Feature","properties":{"Name":"Northwest African American Museum","Neighborhood":"Central District","type":"Heritage","Address":"2300 S Massachusetts St Seattle WA 98144"},"geometry":{"type":"Point","coordinates":[-122.3018907,47.5891416]}},{"type":"Feature","properties":{"Name":"Purlieu Hall","Neighborhood":"","type":"Heritage","Address":"102 S Jackson St Seattle WA 98104"},"geometry":{"type":"Point","coordinates":[-122.333919,47.59922]}},{"type":"Feature","properties":{"Name":"Rainier Valley Historical Society","Neighborhood":"Rainier Valley","type":"Heritage","Address":"3710 S Ferdinand Seattle WA 98118"},"geometry":{"type":"Point","coordinates":[-122.285888,47.55786]}},{"type":"Feature","properties":{"Name":"South Seattle Community College Chinese Gardens","Neighborhood":"West Seattle","type":"Heritage","Address":"6000 16th Ave SW Seattle WA 98106"},"geometry":{"type":"Point","coordinates":[-122.3518643,47.5510384]}},{"type":"Feature","properties":{"Name":"Southwest Seattle Historical Society","Neighborhood":"Alki","type":"Heritage","Address":"3003 61st Ave SW Seattle WA 98116-2810"},"geometry":{"type":"Point","coordinates":[-122.41095,47.577553]}}]}