{"type":"FeatureCollection","features":[{"type":"Feature","properties":{"Name":"SPLAB Seattle Poetics LAB","Neighborhood":"Columbia City","type":"Literary","Address":"4801 Rainier Ave S"},"geometry":{"type":"Point","coordinates":[-122.286751,47.559143]}},{"type":"Feature","properties":{"Name":"B L M F Literary Saloon","Neighborhood":"","type":"Literary","Address":"1501 Pike Pl #322 Seattle WA 98101"},"geometry":{"type":"Point","coordinates":[-122.341049,47.608707]}},{"type":"Feature","properties":{"Name":"Barnes & Noble - Downtown","Neighborhood":"","type":"Literary","Address":"600 Pine St Suite 107 Seattle WA 98101"},"geometry":{"type":"Point","coordinates":[-122.3352762,47.61287415]}},{"type":"Feature","properties":{"Name":"Barnes & Noble - Westwood Village","Neighborhood":"","type":"Literary","Address":"2600 SW Barton St Suite E-1 Seattle WA 98126"},"geometry":{"type":"Point","coordinates":[-122.282632,47.610049]}},{"type":"Feature","properties":{"Name":"Bookworm Exchange","Neighborhood":"","type":"Literary","Address":"5800 Rainier Ave S Seattle WA 98118"},"geometry":{"type":"Point","coordinates":[-122.277273,47.550287]}},{"type":"Feature","properties":{"Name":"C & P Coffee Company","Neighborhood":"West Seattle","type":"Literary","Address":"5612 California Ave SW Seattle WA 98136"},"geometry":{"type":"Point","coordinates":[-122.3866496,47.55166065]}},{"type":"Feature","properties":{"Name":"Elliott Bay Book Company","Neighborhood":"Capitol Hill","type":"Literary","Address":"1521 10th Ave Seattle WA 98122"},"geometry":{"type":"Point","coordinates":[-122.3196776,47.6146657]}},{"type":"Feature","properties":{"Name":"Hugo House","Neighborhood":"Capitol Hill","type":"Literary","Address":"1634 11th Ave Seattle WA 98122"},"geometry":{"type":"Point","coordinates":[-122.3178798,47.6162473]}},{"type":"Feature","properties":{"Name":"Hugo House","Neighborhood":"First Hill","type":"Literary","Address":"1021 Columbia St, Seattle, WA 98104"},"geometry":{"type":"Point","coordinates":[-122.32401,47.60755]}},{"type":"Feature","properties":{"Name":"Kinokuniya Book Store","Neighborhood":"International District","type":"Literary","Address":"525 South Weller St. Seattle WA 98144"},"geometry":{"type":"Point","coordinates":[-122.3116039,47.5975101]}},{"type":"Feature","properties":{"Name":"Left Bank Books","Neighborhood":"","type":"Literary","Address":"92 Pike St Seattle WA 98101"},"geometry":{"type":"Point","coordinates":[-122.3403995,47.6088801]}},{"type":"Feature","properties":{"Name":"Leisure Books","Neighborhood":"","type":"Literary","Address":"4537 California Ave SW Seattle WA 98116"},"geometry":{"type":"Point","coordinates":[-122.38679,47.562161]}},{"type":"Feature","properties":{"Name":"Pegasus Book Exchange","Neighborhood":"","type":"Literary","Address":"4553 California Ave SW Seattle WA 98116"},"geometry":{"type":"Point","coordinates":[-122.387177,47.561455]}},{"type":"Feature","properties":{"Name":"Revolution Books","Neighborhood":"Pioneer Square","type":"Literary","Address":"89 S Washington St Seattle WA 98104"},"geometry":{"type":"Point","coordinates":[-122.334482,47.600887]}},{"type":"Feature","properties":{"Name":"Seattle Public Library Beacon Hill","Neighborhood":"Beacon Hill","type":"Literary","Address":"2821 Beacon Ave S. Seattle WA 98144"},"geometry":{"type":"Point","coordinates":[-122.3114095,47.5779867]}},{"type":"Feature","properties":{"Name":"Seattle Public Library Columbia","Neighborhood":"Columbia City","type":"Literary","Address":"4721 Rainier Ave S Seattle WA 98118"},"geometry":{"type":"Point","coordinates":[-122.2869601,47.55990535]}},{"type":"Feature","properties":{"Name":"Seattle Public Library Delridge","Neighborhood":"West Seattle","type":"Literary","Address":"5423 Delridge Way SW Seattle WA 98106"},"geometry":{"type":"Point","coordinates":[-122.3632976,47.5530455]}},{"type":"Feature","properties":{"Name":"Seattle Public Library Douglas-Truth","Neighborhood":"Central District","type":"Literary","Address":"2300 E Yesler Way Seattle WA 98122"},"geometry":{"type":"Point","coordinates":[-122.3017753,47.601907]}},{"type":"Feature","properties":{"Name":"Seattle Public Library International Districtrict/Chinatown","Neighborhood":"International District","type":"Literary","Address":"1000 4th Ave Seattle WA 98104"},"geometry":{"type":"Point","coordinates":[-122.3309956,47.6040236]}},{"type":"Feature","properties":{"Name":"Seattle Public Library Madrona","Neighborhood":"Madrona","type":"Literary","Address":"1134 33rd Ave Seattle WA 98122"},"geometry":{"type":"Point","coordinates":[-122.2900131,47.61269145]}},{"type":"Feature","properties":{"Name":"Seattle Public Library Main","Neighborhood":"Downtown","type":"Literary","Address":"1000 4th Ave Seattle WA 98104"},"geometry":{"type":"Point","coordinates":[-122.3309956,47.6040236]}},{"type":"Feature","properties":{"Name":"Seattle Public Library West Seattle","Neighborhood":"West Seattle","type":"Literary","Address":"2306 42nd Ave SW Seattle WA 98116"},"geometry":{"type":"Point","coordinates":[-122.3847046,47.5826992]}},{"type":"Feature","properties":{"Name":"Seattle University Bookstore","Neighborhood":"Capitol Hill","type":"Literary","Address":"823 12th Ave Seattle WA 98122"},"geometry":{"type":"Point","coordinates":[-122.3172211,47.6100244]}},{"type":"Feature","properties":{"Name":"Spring Street Center (Subud Pacific Northwest)","Neighborhood":"First Hill","type":"Literary","Address":"1101 15th Ave Seattle WA 98122"},"geometry":{"type":"Point","coordinates":[-122.3130658,47.6117204]}}]}