{"type":"FeatureCollection","features":[{"type":"Feature","properties":{"Name":"Aaron Brothers Art & Framing","Neighborhood":"","type":"Service/Supply","Address":"1513 3rd Ave Seattle WA 98101"},"geometry":{"type":"Point","coordinates":[-122.338524,47.610031]}},{"type":"Feature","properties":{"Name":"Artech","Neighborhood":"","type":"Service/Supply","Address":"2601 1st Ave Seattle WA 98121"},"geometry":{"type":"Point","coordinates":[-122.350227,47.615215]}},{"type":"Feature","properties":{"Name":"Daniel Smith Art Supplies","Neighborhood":"","type":"Service/Supply","Address":"4150 1st Ave S Seattle WA 98134"},"geometry":{"type":"Point","coordinates":[-122.3336229,47.5655555]}},{"type":"Feature","properties":{"Name":"Bell & Reed","Neighborhood":"","type":"Service/Supply","Address":"15 Prefontaine Pl. S Suite 510 Seattle WA 98104"},"geometry":{"type":"Point","coordinates":[-122.330269,47.601719]}},{"type":"Feature","properties":{"Name":"Blick Art Materials","Neighborhood":"","type":"Service/Supply","Address":"1600 Broadway Ct Seattle, WA 98122"},"geometry":{"type":"Point","coordinates":[-122.319849,47.6121708]}},{"type":"Feature","properties":{"Name":"Bremelo Press","Neighborhood":"","type":"Service/Supply","Address":"1400 S. Jackson Place Seattle WA 98144"},"geometry":{"type":"Point","coordinates":[-122.313501,47.598796]}},{"type":"Feature","properties":{"Name":"Drygood Design","Neighborhood":"","type":"Service/Supply","Address":"301 Occidental Ave S Seattle 98104"},"geometry":{"type":"Point","coordinates":[-122.332888,47.599903]}},{"type":"Feature","properties":{"Name":"Earl Harper Studios","Neighborhood":"","type":"Service/Supply","Address":"5531 Airport Way S Seattle WA 98108"},"geometry":{"type":"Point","coordinates":[-122.320488,47.552368]}},{"type":"Feature","properties":{"Name":"Emerald City Guitars","Neighborhood":"","type":"Service/Supply","Address":"83 S Washington St Seattle WA 98104"},"geometry":{"type":"Point","coordinates":[-122.334547,47.600886]}},{"type":"Feature","properties":{"Name":"Gallery Frames","Neighborhood":"","type":"Service/Supply","Address":"625 1st Ave #100 Seattle WA 98104"},"geometry":{"type":"Point","coordinates":[-122.334595,47.602364]}},{"type":"Feature","properties":{"Name":"Glassybaby Madrona","Neighborhood":"","type":"Service/Supply","Address":"3406 East Union St Seattle WA 98122"},"geometry":{"type":"Point","coordinates":[-122.288887,47.61311]}},{"type":"Feature","properties":{"Name":"Golden Age Collectibles","Neighborhood":"","type":"Service/Supply","Address":"1501 Pike Pl #401 Seattle WA 98101"},"geometry":{"type":"Point","coordinates":[-122.341049,47.608707]}},{"type":"Feature","properties":{"Name":"High Voltage Music Store","Neighborhood":"","type":"Service/Supply","Address":"910 E Pike St Seattle WA 98122"},"geometry":{"type":"Point","coordinates":[-122.320107,47.614338]}},{"type":"Feature","properties":{"Name":"Hot Glass Color","Neighborhood":"","type":"Service/Supply","Address":"2227 5th Ave Seattle WA 98121"},"geometry":{"type":"Point","coordinates":[-122.34221,47.615477]}},{"type":"Feature","properties":{"Name":"Kobo at Hibo","Neighborhood":"","type":"Service/Supply","Address":"604 S Jackson St Seattle WA 98104"},"geometry":{"type":"Point","coordinates":[-122.326082,47.599202]}},{"type":"Feature","properties":{"Name":"Mainframe","Neighborhood":"","type":"Service/Supply","Address":"5628 Airport Way S #110 Seattle WA 98108"},"geometry":{"type":"Point","coordinates":[-122.319481,47.551844]}},{"type":"Feature","properties":{"Name":"Northwest Art & Frame","Neighborhood":"","type":"Service/Supply","Address":"4733 California Ave SW Seattle WA 98116"},"geometry":{"type":"Point","coordinates":[-122.387154,47.5601782]}},{"type":"Feature","properties":{"Name":"Pacific Fabrics and Crafts","Neighborhood":"","type":"Service/Supply","Address":"2230 4th Ave S Seattle WA 98134"},"geometry":{"type":"Point","coordinates":[-122.328331,47.582653]}},{"type":"Feature","properties":{"Name":"Rare Medium","Neighborhood":"","type":"Service/Supply","Address":"1321 E Pine St Seattle WA 98122"},"geometry":{"type":"Point","coordinates":[-122.3145155,47.6151142]}},{"type":"Feature","properties":{"Name":"Seattle Magazine/Tiger Oak Media Inc","Neighborhood":"","type":"Service/Supply","Address":"1417 4th Ave Suite 600 Seattle WA 98101"},"geometry":{"type":"Point","coordinates":[-122.336502,47.609505]}},{"type":"Feature","properties":{"Name":"Seattle Metropolitan","Neighborhood":"","type":"Service/Supply","Address":"1201 Western Ave Suite 425 Seattle WA 98101"},"geometry":{"type":"Point","coordinates":[-122.339195,47.605728]}},{"type":"Feature","properties":{"Name":"Seattle PI/Hearst Media Services","Neighborhood":"","type":"Service/Supply","Address":"2901 3rd Ave Ste 120 Seattle WA 98121"},"geometry":{"type":"Point","coordinates":[-122.35183,47.618217]}},{"type":"Feature","properties":{"Name":"Seattle Pottery Supply","Neighborhood":"","type":"Service/Supply","Address":"35 S Hanford St Seattle WA 98134"},"geometry":{"type":"Point","coordinates":[-122.3376252,47.5749176]}},{"type":"Feature","properties":{"Name":"Seattle Scenic Studios","Neighborhood":"","type":"Service/Supply","Address":"2105 S Grand St Seattle WA 98144"},"geometry":{"type":"Point","coordinates":[-122.3044908,47.58682808]}},{"type":"Feature","properties":{"Name":"Seattle Weekly","Neighborhood":"","type":"Service/Supply","Address":"307 3rd Ave S Second Floor Seattle WA 98104"},"geometry":{"type":"Point","coordinates":[-122.33065,47.599701]}},{"type":"Feature","properties":{"Name":"Seattle Yarn","Neighborhood":"West Seattle","type":"Service/Supply","Address":"5633 California Ave SW Seattle WA 98136"},"geometry":{"type":"Point","coordinates":[-122.3874063,47.5511485]}},{"type":"Feature","properties":{"Name":"Soul Cat Guitars","Neighborhood":"","type":"Service/Supply","Address":"1998 Western Ave Seattle WA 98126"},"geometry":{"type":"Point","coordinates":[-122.343685,47.61033]}},{"type":"Feature","properties":{"Name":"Stitches","Neighborhood":"","type":"Service/Supply","Address":"711 East Pike St Seattle WA 98122"},"geometry":{"type":"Point","coordinates":[-122.323097,47.61407]}},{"type":"Feature","properties":{"Name":"Sub Pop Records","Neighborhood":"","type":"Service/Supply","Address":"2013 4th Ave Third Floor Seattle WA 98121"},"geometry":{"type":"Point","coordinates":[-122.3409939,47.6132461]}},{"type":"Feature","properties":{"Name":"The Stranger","Neighborhood":"","type":"Service/Supply","Address":"1535 11th Ave (Third Floor) Seattle WA 98122"},"geometry":{"type":"Point","coordinates":[-122.318207,47.614554]}},{"type":"Feature","properties":{"Name":"Thunder Road Guitars","Neighborhood":"","type":"Service/Supply","Address":"3916 California Ave SW Seattle WA 98116"},"geometry":{"type":"Point","coordinates":[-122.386375,47.568764]}},{"type":"Feature","properties":{"Name":"Unique Art Framing & Gallery","Neighborhood":"","type":"Service/Supply","Address":"3429 Airport Way South Seattle WA 98134"},"geometry":{"type":"Point","coordinates":[-122.322579,47.572744]}},{"type":"Feature","properties":{"Name":"West Seattle Fabric Company","Neighborhood":"","type":"Service/Supply","Address":"3400 Harbor Ave SW #106 Seattle, WA 98126"},"geometry":{"type":"Point","coordinates":[-122.37043,47.572735]}},{"type":"Feature","properties":{"Name":"World Beads","Neighborhood":"","type":"Service/Supply","Address":"98 Virginia St Seattle WA 98101"},"geometry":{"type":"Point","coordinates":[-122.34275,47.610974]}},{"type":"Feature","properties":{"Name":"Georgetown Merchants Associtation","Neighborhood":"Georgetown","type":"Multi-use","Address":"1201 S. Vale Seattle WA 98168"},"geometry":{"type":"Point","coordinates":[-122.31694,47.548858]}},{"type":"Feature","properties":{"Name":"Columbia City Theater","Neighborhood":"Columbia City","type":"Multi-use","Address":"4916 Rainier Ave South"},"geometry":{"type":"Point","coordinates":[-122.284462,47.557316]}},{"type":"Feature","properties":{"Name":"10 Degrees","Neighborhood":"Capitol Hill","type":"Multi-use","Address":"1312 E Union St Seattle WA 98122"},"geometry":{"type":"Point","coordinates":[-122.31477,47.612905]}},{"type":"Feature","properties":{"Name":"Alki Bathhouse Studio","Neighborhood":"West Seattle","type":"Multi-use","Address":"1702 Alki Ave S.W. Seattle WA 98116"},"geometry":{"type":"Point","coordinates":[-122.40967,47.57968]}},{"type":"Feature","properties":{"Name":"Arts West","Neighborhood":"West Seattle","type":"Multi-use","Address":"4711 California Ave SW Seattle WA 98116"},"geometry":{"type":"Point","coordinates":[-122.3871398,47.5607163]}},{"type":"Feature","properties":{"Name":"Belle and Wissell/Oxbow","Neighborhood":"Georgetown","type":"Multi-use","Address":"6014 12th Ave S Seattle WA 98108"},"geometry":{"type":"Point","coordinates":[-122.3170704,47.5487509]}},{"type":"Feature","properties":{"Name":"Century Ballroom","Neighborhood":"Capitol Hill","type":"Multi-use","Address":"915 E Pine St Seattle WA 98122"},"geometry":{"type":"Point","coordinates":[-122.3198707,47.6151265]}},{"type":"Feature","properties":{"Name":"Clearwater Film LLC","Neighborhood":"","type":"Multi-use","Address":"1515 12th Ave Seattle WA 98102"},"geometry":{"type":"Point","coordinates":[-122.317253,47.614429]}},{"type":"Feature","properties":{"Name":"Danse Perdue's Psychomachia Theater","Neighborhood":"SODO","type":"Multi-use","Address":"1534 1st Ave S Seattle WA 98134"},"geometry":{"type":"Point","coordinates":[-122.3342902,47.5719192]}},{"type":"Feature","properties":{"Name":"Design Commission Gallery","Neighborhood":"Pioneer Square","type":"Multi-use","Address":"310 South Washington St Seattle WA 98104"},"geometry":{"type":"Point","coordinates":[-122.3297496,47.6010176]}},{"type":"Feature","properties":{"Name":"Hard Rock Cafe","Neighborhood":"Downtown","type":"Multi-use","Address":"116 Pike St Seattle WA 98101"},"geometry":{"type":"Point","coordinates":[-122.3394956,47.6093109]}},{"type":"Feature","properties":{"Name":"Interbay Worklofts","Neighborhood":"Interbay","type":"Multi-use","Address":"3131 Western Ave #419 Seattle WA 98121"},"geometry":{"type":"Point","coordinates":[-122.3577413,47.6182617]}},{"type":"Feature","properties":{"Name":"Longhouse Media","Neighborhood":"Capitol Hill","type":"Multi-use","Address":"1515 12th Ave Seattle WA 98122"},"geometry":{"type":"Point","coordinates":[-122.317253,47.614429]}},{"type":"Feature","properties":{"Name":"My World Dance and Fitness Studio","Neighborhood":"Central District","type":"Multi-use","Address":"849 Hiawatha Pl S Seattle WA 98144"},"geometry":{"type":"Point","coordinates":[-122.309673,47.595163]}},{"type":"Feature","properties":{"Name":"Rainier Valley Cultural Center","Neighborhood":"","type":"Multi-use","Address":"3515 S Alaska St Seattle WA 98118"},"geometry":{"type":"Point","coordinates":[-122.287979,47.560467]}},{"type":"Feature","properties":{"Name":"Southside Commons","Neighborhood":"Columbia City","type":"Multi-use","Address":"3518 S Edmunds St Seattle WA 98118"},"geometry":{"type":"Point","coordinates":[-122.287971,47.558868]}},{"type":"Feature","properties":{"Name":"St. James Cathedral","Neighborhood":"","type":"Multi-use","Address":""},"geometry":{"type":"Point","coordinates":[-122.325935,47.607586]}},{"type":"Feature","properties":{"Name":"Storefronts Seattle/Shunpike","Neighborhood":"Belltown","type":"Multi-use","Address":"2324 1st Ave # 112 Seattle WA 98121"},"geometry":{"type":"Point","coordinates":[-122.3472372,47.6139909]}},{"type":"Feature","properties":{"Name":"Studio Current","Neighborhood":"Capitol Hill","type":"Multi-use","Address":"1417 10th Ave #C Seattle WA 98122"},"geometry":{"type":"Point","coordinates":[-122.319412,47.613223]}},{"type":"Feature","properties":{"Name":"Studio Current","Neighborhood":"Capitol Hill","type":"Multi-use","Address":"1100 E Pike St, Seattle WA 98101"},"geometry":{"type":"Point","coordinates":[-122.317856,47.61426]}},{"type":"Feature","properties":{"Name":"SURFincubator II","Neighborhood":"Downtown","type":"Multi-use","Address":"999 3rd Ave Suite700 Seattle WA 98104"},"geometry":{"type":"Point","coordinates":[-122.334244,47.605034]}},{"type":"Feature","properties":{"Name":"The Collaboratory","Neighborhood":"","type":"Multi-use","Address":"5623 Rainier Ave S Seattle WA 98118"},"geometry":{"type":"Point","coordinates":[-122.277981,47.551707]}},{"type":"Feature","properties":{"Name":"The Pioneer Collective","Neighborhood":"Pioneer Square","type":"Multi-use","Address":"100 South King Street Suite 100 Seattle WA 98104"},"geometry":{"type":"Point","coordinates":[-122.333794,47.598572]}},{"type":"Feature","properties":{"Name":"The Project Room","Neighborhood":"Capitol Hill","type":"Multi-use","Address":"1315 E Pine St Seattle WA 98122"},"geometry":{"type":"Point","coordinates":[-122.3147172,47.6151596]}},{"type":"Feature","properties":{"Name":"The Studios","Neighborhood":"Downtown","type":"Multi-use","Address":"1801 5th Avenue Seattle, WA 98101"},"geometry":{"type":"Point","coordinates":[-122.3378104,47.6127204]}},{"type":"Feature","properties":{"Name":"Town Hall","Neighborhood":"First Hill","type":"Multi-use","Address":"1119 8th Ave Seattle WA 98101"},"geometry":{"type":"Point","coordinates":[-122.3299408,47.6090096]}},{"type":"Feature","properties":{"Name":"WA State Holocaust Ed Center","Neighborhood":"Downtown","type":"Multi-use","Address":"2031 3rd Ave Seattle WA 98121"},"geometry":{"type":"Point","coordinates":[-122.3422256,47.6128253]}},{"type":"Feature","properties":{"Name":"Washington Hall","Neighborhood":"Central District","type":"Multi-use","Address":"153 14th Ave Seattle WA 98122"},"geometry":{"type":"Point","coordinates":[-122.3145874,47.60284]}},{"type":"Feature","properties":{"Name":"Youngstown Cultural Arts Center","Neighborhood":"West Seattle","type":"Multi-use","Address":"4408 Delridge Way SW Seattle WA 98106"},"geometry":{"type":"Point","coordinates":[-122.3630304,47.56357765]}}]}