{"type":"FeatureCollection","features":[{"type":"Feature","properties":{"Name":"Artspace Hiawatha Lofts","Neighborhood":"Central District","type":"Live/Work","Address":"843 Hiawatha Pl S Seattle WA 98144"},"geometry":{"type":"Point","coordinates":[-122.3099181,47.5951899]}},{"type":"Feature","properties":{"Name":"Artspace Mt Baker Lofts","Neighborhood":"","type":"Live/Work","Address":"2915 Rainier Avenue S Seattle WA 98144"},"geometry":{"type":"Point","coordinates":[-122.297668,47.577168]}},{"type":"Feature","properties":{"Name":"Artspace Tashiro Kaplan Lofts and the Angle & Corridor Gallery","Neighborhood":"Pioneer Square","type":"Live/Work","Address":"115 Prefontaine Place S Seattle WA 98104"},"geometry":{"type":"Point","coordinates":[-122.3297091,47.6012805]}},{"type":"Feature","properties":{"Name":"Impact Hub Seattle","Neighborhood":"Pioneer Square","type":"Live/Work","Address":"220 2nd Ave S Seattle WA 98104"},"geometry":{"type":"Point","coordinates":[-122.3313269,47.6007271]}},{"type":"Feature","properties":{"Name":"NW Work Lofts","Neighborhood":"","type":"Live/Work","Address":"3131 Western Ave #419 Seattle WA 98121"},"geometry":{"type":"Point","coordinates":[-122.35743,47.618248]}},{"type":"Feature","properties":{"Name":"The Royal Room","Neighborhood":"Columbia City","type":"Music","Address":"5000 Rainier Ave S"},"geometry":{"type":"Point","coordinates":[-122.283927,47.556793]}},{"type":"Feature","properties":{"Name":"Mead St.","Neighborhood":"Hillman City","type":"Music","Address":"5800 Rainier Ave S"},"geometry":{"type":"Point","coordinates":[-122.277208,47.550297]}},{"type":"Feature","properties":{"Name":"88 Keys Dueling Piano Bar","Neighborhood":"","type":"Music","Address":"315 2nd Ave S Seattle WA 98104"},"geometry":{"type":"Point","coordinates":[-122.331978,47.599537]}},{"type":"Feature","properties":{"Name":"Baltic Room","Neighborhood":"","type":"Music","Address":"1207 Pine St Seattle WA 98101"},"geometry":{"type":"Point","coordinates":[-122.3282665,47.6149287]}},{"type":"Feature","properties":{"Name":"Benaroya Hall","Neighborhood":"Downtown","type":"Music","Address":"200 University St Seattle WA 98101"},"geometry":{"type":"Point","coordinates":[-122.3369748,47.60812795]}},{"type":"Feature","properties":{"Name":"Brass Tacks","Neighborhood":"","type":"Music","Address":"6031 Airport Way S Seattle WA 98108"},"geometry":{"type":"Point","coordinates":[-122.31663,47.548977]}},{"type":"Feature","properties":{"Name":"Capitol Cider","Neighborhood":"","type":"Music","Address":"818 E Pike St Seattle WA 98122"},"geometry":{"type":"Point","coordinates":[-122.321734,47.61407]}},{"type":"Feature","properties":{"Name":"Capitol Club (CLOSED)","Neighborhood":"","type":"Music","Address":"414 E Pine St Seattle WA 98122"},"geometry":{"type":"Point","coordinates":[-122.3260485,47.6153941]}},{"type":"Feature","properties":{"Name":"Capitol Hill Block Party","Neighborhood":"","type":"Music","Address":"1122 E Pike St Seattle WA 98122"},"geometry":{"type":"Point","coordinates":[-122.317245,47.614273]}},{"type":"Feature","properties":{"Name":"Central Saloon","Neighborhood":"","type":"Music","Address":"207 1st Ave S Seattle WA 98104"},"geometry":{"type":"Point","coordinates":[-122.334579,47.600586]}},{"type":"Feature","properties":{"Name":"Chop Suey, LLC.","Neighborhood":"Capitol Hill","type":"Music","Address":"1325 E Madison St Seattle WA 98122"},"geometry":{"type":"Point","coordinates":[-122.3144433,47.6134869]}},{"type":"Feature","properties":{"Name":"Columbia City Theater","Neighborhood":"Columbia City","type":"Music","Address":"4916 Rainier Ave S Seattle WA 98118"},"geometry":{"type":"Point","coordinates":[-122.2844836,47.5573208]}},{"type":"Feature","properties":{"Name":"Comet Tavern","Neighborhood":"","type":"Music","Address":"922 E Pike St Seattle WA 98122"},"geometry":{"type":"Point","coordinates":[-122.3197336,47.6142655]}},{"type":"Feature","properties":{"Name":"Crybaby Studios","Neighborhood":"Capitol Hill","type":"Music","Address":"11th Ave Seattle WA 98122"},"geometry":{"type":"Point","coordinates":[-122.3181106,47.6129328]}},{"type":"Feature","properties":{"Name":"Easy Street Records","Neighborhood":"","type":"Music","Address":"4559 California Ave SW Seattle WA 98116"},"geometry":{"type":"Point","coordinates":[-122.3870841,47.5614664]}},{"type":"Feature","properties":{"Name":"El Corazon","Neighborhood":"Eastlake","type":"Music","Address":"109 Eastlake Ave E Seattle WA 98109"},"geometry":{"type":"Point","coordinates":[-122.3293302,47.618798]}},{"type":"Feature","properties":{"Name":"Electric Tea Garden (CLOSED)","Neighborhood":"","type":"Music","Address":"1402 E Pike St Seattle WA 98122"},"geometry":{"type":"Point","coordinates":[-122.3139168,47.6143]}},{"type":"Feature","properties":{"Name":"Everyday Music","Neighborhood":"","type":"Music","Address":"1520 10th Ave Seattle WA 98122"},"geometry":{"type":"Point","coordinates":[-122.319069,47.614746]}},{"type":"Feature","properties":{"Name":"Flying House Productions","Neighborhood":"First Hill","type":"Music","Address":"319 12th Ave Seattle WA 98122"},"geometry":{"type":"Point","coordinates":[-122.3171573,47.60502955]}},{"type":"Feature","properties":{"Name":"Georgetown Records and Fantagraphics Books","Neighborhood":"Georgetown","type":"Music","Address":"1201 S Vale St Seattle WA 98108"},"geometry":{"type":"Point","coordinates":[-122.3169537,47.5490859]}},{"type":"Feature","properties":{"Name":"Highway 99 Blues Club","Neighborhood":"Downtown","type":"Music","Address":"1414 Alaskan Way Seattle WA 98101"},"geometry":{"type":"Point","coordinates":[-122.3366083,47.6017992]}},{"type":"Feature","properties":{"Name":"Hollow Earth Radio","Neighborhood":"Central District","type":"Music","Address":"2018 A E. Union St Seattle WA 98122"},"geometry":{"type":"Point","coordinates":[-122.316028,47.6129184]}},{"type":"Feature","properties":{"Name":"Holy Cow Records","Neighborhood":"","type":"Music","Address":"1501 Pike Pl Suite 325 Seattle WA 98121"},"geometry":{"type":"Point","coordinates":[-122.341049,47.608707]}},{"type":"Feature","properties":{"Name":"Kremwerk","Neighborhood":"","type":"Music","Address":"1809 Minor Ave #10 Seattle WA 98101"},"geometry":{"type":"Point","coordinates":[-122.331184,47.616871]}},{"type":"Feature","properties":{"Name":"KXSU Radio","Neighborhood":"First Hill","type":"Music","Address":"901 12th Ave Seattle WA 98122"},"geometry":{"type":"Point","coordinates":[-122.3171103,47.6106553]}},{"type":"Feature","properties":{"Name":"Meter Music School","Neighborhood":"Central District","type":"Music","Address":"2110 E Union St Seattle WA 98122"},"geometry":{"type":"Point","coordinates":[-122.304382,47.613136]}},{"type":"Feature","properties":{"Name":"Monster Concerts INC DBA STUDIO SEVEN","Neighborhood":"SODO","type":"Music","Address":"110 S Horton St Seattle WA 98134"},"geometry":{"type":"Point","coordinates":[-122.333908,47.574394]}},{"type":"Feature","properties":{"Name":"Neighbours","Neighborhood":"","type":"Music","Address":"1509 Broadway, Seattle WA 98122"},"geometry":{"type":"Point","coordinates":[-122.321198,47.614395]}},{"type":"Feature","properties":{"Name":"Neumos/Barboza","Neighborhood":"Capitol Hill","type":"Music","Address":"925 E Pike St Seattle WA 98122"},"geometry":{"type":"Point","coordinates":[-122.319574,47.613959]}},{"type":"Feature","properties":{"Name":"New Orleans Creole Restaurant + Jazz Music (CLOSED)","Neighborhood":"","type":"Music","Address":"114 First Ave S Seattle WA 98104"},"geometry":{"type":"Point","coordinates":[-122.3341906,47.5965162]}},{"type":"Feature","properties":{"Name":"Orbit Audio","Neighborhood":"Pioneer Square","type":"Music","Address":"219 1st Ave S Seattle WA 98104"},"geometry":{"type":"Point","coordinates":[-122.3346249,47.6002492]}},{"type":"Feature","properties":{"Name":"OutWest","Neighborhood":"","type":"Music","Address":"5401 California Ave SW Seattle WA 98136"},"geometry":{"type":"Point","coordinates":[-122.387314,47.553764]}},{"type":"Feature","properties":{"Name":"Pony","Neighborhood":"","type":"Music","Address":"1221 E Madison St Seattle WA 98122"},"geometry":{"type":"Point","coordinates":[-122.315788,47.613079]}},{"type":"Feature","properties":{"Name":"Porchlight Coffee & Records","Neighborhood":"","type":"Music","Address":"1517 14th Ave Seattle WA 98122"},"geometry":{"type":"Point","coordinates":[-122.314238,47.614417]}},{"type":"Feature","properties":{"Name":"Radio Variedades KXPA 1540 AM","Neighborhood":"Leschi","type":"Music","Address":"114 LakeSide Ave S Seattle, WA 98122"},"geometry":{"type":"Point","coordinates":[-122.28545,47.601443]}},{"type":"Feature","properties":{"Name":"Rain City Rock Camp for Girls","Neighborhood":"Central District","type":"Music","Address":"300 19th Ave Seattle WA 98122"},"geometry":{"type":"Point","coordinates":[-122.3074673,47.6044443]}},{"type":"Feature","properties":{"Name":"Re-bar","Neighborhood":"","type":"Music","Address":"1114 Howell St Seattle WA 98101"},"geometry":{"type":"Point","coordinates":[-122.3310756,47.6167076]}},{"type":"Feature","properties":{"Name":"Rockit Community Arts and Garden House","Neighborhood":"Beacon Hill","type":"Music","Address":"2336 15th Ave S. Seattle WA 98144"},"geometry":{"type":"Point","coordinates":[-122.3130944,47.58176075]}},{"type":"Feature","properties":{"Name":"Royal Esquire Club Inc.","Neighborhood":"Columbia City","type":"Music","Address":"5016 Rainer Ave S Seattle WA 98118"},"geometry":{"type":"Point","coordinates":[-122.284429,47.556855]}},{"type":"Feature","properties":{"Name":"Royal Room","Neighborhood":"Columbia City","type":"Music","Address":"5000 Rainier Ave S Seattle WA 98118"},"geometry":{"type":"Point","coordinates":[-122.2843057,47.556924]}},{"type":"Feature","properties":{"Name":"Seattle Eagle Tavern","Neighborhood":"","type":"Music","Address":""},"geometry":{"type":"Point","coordinates":[-122.327164,47.614323]}},{"type":"Feature","properties":{"Name":"Showbox at the Market","Neighborhood":"Downtown","type":"Music","Address":"1426 1st Ave Seattle WA 98101"},"geometry":{"type":"Point","coordinates":[-122.339743,47.608495]}},{"type":"Feature","properties":{"Name":"Silver Platters SoDo","Neighborhood":"","type":"Music","Address":"2930 1st Ave S Seattle WA 98121"},"geometry":{"type":"Point","coordinates":[-122.3341971,47.59029]}},{"type":"Feature","properties":{"Name":"Singles Going Steady","Neighborhood":"","type":"Music","Address":"2219 2nd Ave Seattle WA 98121"},"geometry":{"type":"Point","coordinates":[-122.345268,47.613453]}},{"type":"Feature","properties":{"Name":"Tune HiFi","Neighborhood":"","type":"Music","Address":"2121 1st Ave Seattle WA 98121"},"geometry":{"type":"Point","coordinates":[-122.344917,47.612072]}},{"type":"Feature","properties":{"Name":"Slim's Last Chance","Neighborhood":"","type":"Music","Address":"5606 1st Ave S Seattle WA 98108"},"geometry":{"type":"Point","coordinates":[-122.3339033,47.5524847]}},{"type":"Feature","properties":{"Name":"St. Clouds","Neighborhood":"","type":"Music","Address":"1131 34th Ave Seattle WA 98122"},"geometry":{"type":"Point","coordinates":[-122.289642,47.612602]}},{"type":"Feature","properties":{"Name":"Triple Door Theater and Musicquarium Lounge","Neighborhood":"Downtown","type":"Music","Address":"216 Union St Seattle WA 98101"},"geometry":{"type":"Point","coordinates":[-122.337685,47.6086439]}},{"type":"Feature","properties":{"Name":"Unicorn","Neighborhood":"","type":"Music","Address":"1118 E Pike St Seattle WA 98122"},"geometry":{"type":"Point","coordinates":[-122.317716,47.614125]}},{"type":"Feature","properties":{"Name":"Vespertine Noise","Neighborhood":"Columbia City","type":"Music","Address":"4904 Rainer Ave S Seattle WA 98118"},"geometry":{"type":"Point","coordinates":[-122.284917,47.557722]}},{"type":"Feature","properties":{"Name":"Vito's","Neighborhood":"First Hill","type":"Music","Address":"927 9th Ave Seattle, WA 98104"},"geometry":{"type":"Point","coordinates":[-122.326933,47.607943]}},{"type":"Feature","properties":{"Name":"Wall of Sound","Neighborhood":"","type":"Music","Address":"1205 E Pike St #1C Seattle WA 98122"},"geometry":{"type":"Point","coordinates":[-122.316429,47.613922]}},{"type":"Feature","properties":{"Name":"Zions Gate Records","Neighborhood":"","type":"Music","Address":"1100 E Pike St Seattle WA 98122"},"geometry":{"type":"Point","coordinates":[-122.317856,47.61426]}},{"type":"Feature","properties":{"Name":"12th Ave Arts","Neighborhood":"Capitol Hill","type":"Performance","Address":"1620 12th Ave #101"},"geometry":{"type":"Point","coordinates":[-122.316789,47.615572]}},{"type":"Feature","properties":{"Name":"5th Avenue Theatre","Neighborhood":"Downtown","type":"Performance","Address":"1308 5th Ave Seattle WA 98101"},"geometry":{"type":"Point","coordinates":[-122.3339671,47.6091749]}},{"type":"Feature","properties":{"Name":"A Contemporary Theatre (ACT)","Neighborhood":"Downtown","type":"Performance","Address":"700 Union St Seattle WA 98101"},"geometry":{"type":"Point","coordinates":[-122.3323316,47.6108495]}},{"type":"Feature","properties":{"Name":"Annex Theatre","Neighborhood":"Capitol Hill","type":"Performance","Address":"1100 E Pike St Seattle WA 98122"},"geometry":{"type":"Point","coordinates":[-122.317856,47.61426]}},{"type":"Feature","properties":{"Name":"AXIS Pioneer Square","Neighborhood":"Pioneer Square","type":"Performance","Address":"308 1st Ave S Seattle WA 98104"},"geometry":{"type":"Point","coordinates":[-122.3441663,47.615789]}},{"type":"Feature","properties":{"Name":"Cafe Nordo","Neighborhood":"Pioneer Square","type":"Performance","Address":"109 S. Main St Seattle WA 98104"},"geometry":{"type":"Point","coordinates":[-122.333781,47.60004]}},{"type":"Feature","properties":{"Name":"Can Can Kitchen and Cabaret","Neighborhood":"Pike Market","type":"Performance","Address":"Pike Place Market 94 Pike St. Seattle WA 98101"},"geometry":{"type":"Point","coordinates":[-122.340249,47.608811]}},{"type":"Feature","properties":{"Name":"Canoe Social Club","Neighborhood":"Capitol Hill","type":"Performance","Address":"1423 10th Ave Seattle WA 98122"},"geometry":{"type":"Point","coordinates":[-122.319832,47.613571]}},{"type":"Feature","properties":{"Name":"Central District Forum for Arts & Ideas","Neighborhood":"","type":"Performance","Address":"1404 E Yesler Way #202 Seattle WA 98122"},"geometry":{"type":"Point","coordinates":[-122.3137703,47.6019002]}},{"type":"Feature","properties":{"Name":"Columbia City Gallery SEEDArts","Neighborhood":"Columbia City","type":"Performance","Address":"4864 Rainier Ave S Seattle WA 98118"},"geometry":{"type":"Point","coordinates":[-122.2850094,47.558197]}},{"type":"Feature","properties":{"Name":"Cornish College of the Arts- Raisbeck Performance Hall","Neighborhood":"","type":"Performance","Address":"2015 Boren Ave Seattle WA 98121"},"geometry":{"type":"Point","coordinates":[-122.3348113,47.6178573]}},{"type":"Feature","properties":{"Name":"Crocodile","Neighborhood":"Belltown","type":"Performance","Address":"2200 2nd Ave Seattle WA 98121"},"geometry":{"type":"Point","coordinates":[-122.3442489,47.6135576]}},{"type":"Feature","properties":{"Name":"Cuff Complex","Neighborhood":"","type":"Performance","Address":"1533 13th Avenue Seattle WA 98122"},"geometry":{"type":"Point","coordinates":[-122.315534,47.61456]}},{"type":"Feature","properties":{"Name":"DASSdance Seattle","Neighborhood":"","type":"Performance","Address":"1630 27th Avenue Seattle WA 98122"},"geometry":{"type":"Point","coordinates":[-122.297218,47.616283]}},{"type":"Feature","properties":{"Name":"Duwamish Longhouse","Neighborhood":"West Seattle","type":"Performance","Address":"4705 W Marginal Way SW Seattle WA 98106"},"geometry":{"type":"Point","coordinates":[-122.352001,47.56093545]}},{"type":"Feature","properties":{"Name":"Eclectic Theater Company","Neighborhood":"Capitol Hill","type":"Performance","Address":"1214 10th Ave Seattle WA 98122"},"geometry":{"type":"Point","coordinates":[-122.3191571,47.6126561]}},{"type":"Feature","properties":{"Name":"Empty Sea Studios","Neighborhood":"Phinney Ridge","type":"Performance","Address":"2524 16th Ave S Seattle WA 98144"},"geometry":{"type":"Point","coordinates":[-122.3112978,47.5803398]}},{"type":"Feature","properties":{"Name":"Erickson Theater","Neighborhood":"Capitol Hill","type":"Performance","Address":"1524 Harvard Ave Seattle WA 98122"},"geometry":{"type":"Point","coordinates":[-122.3217378,47.6148138]}},{"type":"Feature","properties":{"Name":"Freehold Theatre and Lab Studio","Neighborhood":"Belltown","type":"Performance","Address":"2222 2nd Ave Suite 200 Seattle WA 98121"},"geometry":{"type":"Point","coordinates":[-122.3448891,47.6138182]}},{"type":"Feature","properties":{"Name":"Freehold Theatre and Lab Studio","Neighborhood":"International District","type":"Performance","Address":"2222 2nd Ave Suite 200 Seattle WA 98121"},"geometry":{"type":"Point","coordinates":[-122.32504,47.597595]}},{"type":"Feature","properties":{"Name":"Full Tilt Columbia City","Neighborhood":"Columbia City","type":"Performance","Address":"5041 Rainier Ave S Seattle WA 98118"},"geometry":{"type":"Point","coordinates":[-122.2840929,47.5559849]}},{"type":"Feature","properties":{"Name":"Gallery 1412","Neighborhood":"","type":"Performance","Address":"1412 18th Ave Seattle WA 98122"},"geometry":{"type":"Point","coordinates":[-122.3086811,47.6133227]}},{"type":"Feature","properties":{"Name":"Gay City Health Project","Neighborhood":"Capitol Hill","type":"Performance","Address":"517 East Pike St Seattle WA 98122"},"geometry":{"type":"Point","coordinates":[-122.324783,47.613796]}},{"type":"Feature","properties":{"Name":"Hanson Scott Gallery","Neighborhood":"","type":"Performance","Address":"121 Prefontaine Pl S Seattle WA 98104"},"geometry":{"type":"Point","coordinates":[-122.3295897,47.6011373]}},{"type":"Feature","properties":{"Name":"Khambatta Dance Company","Neighborhood":"","type":"Performance","Address":"5609 34th Ave SW Seattle Washington 98126"},"geometry":{"type":"Point","coordinates":[-122.375336,47.551598]}},{"type":"Feature","properties":{"Name":"Kings Hall","Neighborhood":"Beacon Hill","type":"Performance","Address":"2929 27th Ave South Seattle WA 98118"},"geometry":{"type":"Point","coordinates":[-122.2973139,47.5681098]}},{"type":"Feature","properties":{"Name":"Langston Hughes Performing Arts Institute","Neighborhood":"Central District","type":"Performance","Address":"104 17th Ave S Seattle WA 98144"},"geometry":{"type":"Point","coordinates":[-122.3098251,47.60129695]}},{"type":"Feature","properties":{"Name":"Lee Center for the Arts","Neighborhood":"Capitol Hill","type":"Performance","Address":"901 12th Ave Seattle WA 98122"},"geometry":{"type":"Point","coordinates":[-122.3171103,47.6106553]}},{"type":"Feature","properties":{"Name":"Macha Monkey Productions","Neighborhood":"","type":"Performance","Address":"2222 2nd Ave #200 Seattle WA 98121"},"geometry":{"type":"Point","coordinates":[-122.344756,47.613483]}},{"type":"Feature","properties":{"Name":"Martyr Sauce","Neighborhood":"Pioneer Square","type":"Performance","Address":"122 S Washington St. Seattle WA 98104"},"geometry":{"type":"Point","coordinates":[-122.333385,47.60089]}},{"type":"Feature","properties":{"Name":"Massive Monkees Studios","Neighborhood":"Chinatown International District","type":"Performance","Address":"664 S King St Seattle WA 98104"},"geometry":{"type":"Point","coordinates":[-122.324135,47.598602]}},{"type":"Feature","properties":{"Name":"New City Theater","Neighborhood":"Central District","type":"Performance","Address":"1404 18th Ave Seattle WA 98122"},"geometry":{"type":"Point","coordinates":[-122.3086934,47.6131012]}},{"type":"Feature","properties":{"Name":"18th & Union","Neighborhood":"Central District","type":"Performance","Address":"1404 18th Ave Seattle WA 98122"},"geometry":{"type":"Point","coordinates":[-122.3086934,47.6131012]}},{"type":"Feature","properties":{"Name":"Parlor Live Seattle","Neighborhood":"","type":"Performance","Address":"1522 6th Ave Seattle WA 98101"},"geometry":{"type":"Point","coordinates":[-122.33477,47.611415]}},{"type":"Feature","properties":{"Name":"Pink Door","Neighborhood":"","type":"Performance","Address":"1919 Post Alley Seattle WA 98101"},"geometry":{"type":"Point","coordinates":[-122.3424974,47.6102805]}},{"type":"Feature","properties":{"Name":"Rendezvous & Jewel Box Theater","Neighborhood":"Belltown","type":"Performance","Address":"2322 2nd Ave Seattle WA 98121"},"geometry":{"type":"Point","coordinates":[-122.3462234,47.614714]}},{"type":"Feature","properties":{"Name":"Satori Lab in Inscape","Neighborhood":"International District","type":"Performance","Address":"815 Seattle Blvd S Seattle WA 98134"},"geometry":{"type":"Point","coordinates":[-122.3270859,47.59511695]}},{"type":"Feature","properties":{"Name":"School of Acrobatics & New Circus Arts (SANCA)","Neighborhood":"Georgetown","type":"Performance","Address":"674 S Orcas St Seattle WA 98108"},"geometry":{"type":"Point","coordinates":[-122.3246163,47.5518058]}},{"type":"Feature","properties":{"Name":"Scratch Deli","Neighborhood":"","type":"Performance","Address":"1718 12th Ave Seattle WA 98122"},"geometry":{"type":"Point","coordinates":[-122.31649,47.617073]}},{"type":"Feature","properties":{"Name":"Seattle Arts & Lectures","Neighborhood":"","type":"Performance","Address":"205 S Findlay St Seattle WA 98108"},"geometry":{"type":"Point","coordinates":[-122.3317069,47.5524608]}},{"type":"Feature","properties":{"Name":"Seattle Central Community College Broadway Performance Hall","Neighborhood":"Capitol Hill","type":"Performance","Address":"1625 Broadway Seattle WA 98122"},"geometry":{"type":"Point","coordinates":[-122.321786,47.6157581]}},{"type":"Feature","properties":{"Name":"Seattle Fandango Project in El Centro De La Raza","Neighborhood":"","type":"Performance","Address":"2524 16th Ave S Seattle WA 98144"},"geometry":{"type":"Point","coordinates":[-122.3112978,47.5803398]}},{"type":"Feature","properties":{"Name":"Showbox SODO","Neighborhood":"SODO","type":"Performance","Address":"1700 1st Ave South Seattle WA 98134"},"geometry":{"type":"Point","coordinates":[-122.3339403,47.5878916]}},{"type":"Feature","properties":{"Name":"Skylark Cafe & Club","Neighborhood":"West Seattle","type":"Performance","Address":"3803 Delridge Way SW Seattle WA 98106"},"geometry":{"type":"Point","coordinates":[-122.3625235,47.5700038]}},{"type":"Feature","properties":{"Name":"South Seattle Community College Little Theatre","Neighborhood":"","type":"Performance","Address":"6000 16th Ave SW Seattle WA 98106"},"geometry":{"type":"Point","coordinates":[-122.3518643,47.5510384]}},{"type":"Feature","properties":{"Name":"STG Moore Theatre","Neighborhood":"Belltown","type":"Performance","Address":"1932 2nd Ave Seattle WA 98101"},"geometry":{"type":"Point","coordinates":[-122.340846,47.6113032]}},{"type":"Feature","properties":{"Name":"STG Paramount Theatre","Neighborhood":"Downtown","type":"Performance","Address":"911 Pine St Seattle WA 98101"},"geometry":{"type":"Point","coordinates":[-122.331356,47.6132437]}},{"type":"Feature","properties":{"Name":"SURF Incubator","Neighborhood":"Downtown","type":"Performance","Address":"999 3rd Ave Suite 700 Seattle WA 98104"},"geometry":{"type":"Point","coordinates":[-122.334244,47.605034]}},{"type":"Feature","properties":{"Name":"The Comedy Underground","Neighborhood":"","type":"Performance","Address":"109 S. Washington St Seattle, WA 98104"},"geometry":{"type":"Point","coordinates":[-122.333879,47.60089]}},{"type":"Feature","properties":{"Name":"The Market Theater","Neighborhood":"Downtown","type":"Performance","Address":"1428 Post Alley Seattle WA 98101"},"geometry":{"type":"Point","coordinates":[-122.3417416,47.6098589]}},{"type":"Feature","properties":{"Name":"Theater Schmeater","Neighborhood":"Capitol Hill","type":"Performance","Address":"1500 Summit Ave Seattle WA 98122"},"geometry":{"type":"Point","coordinates":[-122.34325,47.61344]}},{"type":"Feature","properties":{"Name":"Theater Schmeater","Neighborhood":"Belltown","type":"Performance","Address":"2125 3rd Ave, Seattle WA  98121"},"geometry":{"type":"Point","coordinates":[-122.325396,47.614211]}},{"type":"Feature","properties":{"Name":"Theatre Off Jackson","Neighborhood":"International District","type":"Performance","Address":"409 7th Ave S Seattle WA 98104"},"geometry":{"type":"Point","coordinates":[-122.3239595,47.5988665]}},{"type":"Feature","properties":{"Name":"Trinity Parish Church","Neighborhood":"First Hill","type":"Performance","Address":"609 8th Ave Seattle WA 98104"},"geometry":{"type":"Point","coordinates":[-122.3262281,47.6052251]}},{"type":"Feature","properties":{"Name":"Tula's","Neighborhood":"Belltown","type":"Performance","Address":"2214 2nd Ave Seattle WA 98121"},"geometry":{"type":"Point","coordinates":[-122.3444191,47.6136108]}},{"type":"Feature","properties":{"Name":"Unified Outreach Youth Arts","Neighborhood":"West Seattle","type":"Performance","Address":"4401 42nd Ave SW Seattle WA 98116"},"geometry":{"type":"Point","coordinates":[-122.3858692,47.56452925]}},{"type":"Feature","properties":{"Name":"Vachon Gallery","Neighborhood":"First Hill","type":"Performance","Address":"1000 E. Madison St Seattle WA 98122"},"geometry":{"type":"Point","coordinates":[-122.3191481,47.61205715]}},{"type":"Feature","properties":{"Name":"Velocity Dance Center","Neighborhood":"Capitol Hill","type":"Performance","Address":"1621 12th Ave Seattle WA 98122"},"geometry":{"type":"Point","coordinates":[-122.3171739,47.6156632]}},{"type":"Feature","properties":{"Name":"WaMu Theater","Neighborhood":"","type":"Performance","Address":"1000 Occidental Ave S Seattle WA 98134"},"geometry":{"type":"Point","coordinates":[-122.3334874,47.593601]}}]}