{"type":"FeatureCollection","features":[{"type":"Feature","properties":{"Name":"Addison on Fourth","Neighborhood":"","type":"Studios","Address":"308 4th Ave S Seattle WA 98104"},"geometry":{"type":"Point","coordinates":[-122.328575,47.599777]}},{"type":"Feature","properties":{"Name":"ALTspace","Neighborhood":"Central District","type":"Studios","Address":"2318 E Cherry St Seattle WA 98122"},"geometry":{"type":"Point","coordinates":[-122.3018854,47.6081565]}},{"type":"Feature","properties":{"Name":"Avalon Glassworks","Neighborhood":"West Seattle","type":"Studios","Address":"2914 SW Avalon Way Seattle WA 98126"},"geometry":{"type":"Point","coordinates":[-122.3710219,47.5707566]}},{"type":"Feature","properties":{"Name":"Bad Animals","Neighborhood":"","type":"Studios","Address":"2212 4th Ave Seattle WA 98121"},"geometry":{"type":"Point","coordinates":[-122.342923,47.6151383]}},{"type":"Feature","properties":{"Name":"Bemis Building","Neighborhood":"","type":"Studios","Address":"55 South Atlantic St Seattle WA 98134"},"geometry":{"type":"Point","coordinates":[-122.3362466,47.5900022]}},{"type":"Feature","properties":{"Name":"Da Projectz Music Recording Studio","Neighborhood":"","type":"Studios","Address":"114 Alaskan Way South Suite 103 Seattle, WA 98104"},"geometry":{"type":"Point","coordinates":[-122.33522,47.601212]}},{"type":"Feature","properties":{"Name":"Earwig Studio","Neighborhood":"","type":"Studios","Address":"74 S Lucile St Seattle WA 98134"},"geometry":{"type":"Point","coordinates":[-122.335594,47.553658]}},{"type":"Feature","properties":{"Name":"Elliott Bay Recording Inc","Neighborhood":"","type":"Studios","Address":"932 12th Ave Seattle WA 98122"},"geometry":{"type":"Point","coordinates":[-122.3164132,47.6113827]}},{"type":"Feature","properties":{"Name":"Fuzzy Lounge Recording","Neighborhood":"","type":"Studios","Address":"4742 42nd Ave SW #617 Seattle WA 98116"},"geometry":{"type":"Point","coordinates":[-122.385507,47.560037]}},{"type":"Feature","properties":{"Name":"Inscape Building","Neighborhood":"International District","type":"Studios","Address":"815 Seattle Blvd S Seattle WA 98134"},"geometry":{"type":"Point","coordinates":[-122.3270859,47.59511695]}},{"type":"Feature","properties":{"Name":"Mack 9 Music Group","Neighborhood":"","type":"Studios","Address":"212 Alaskan Way S #105A Seattle WA 98104"},"geometry":{"type":"Point","coordinates":[-122.335144,47.60038]}},{"type":"Feature","properties":{"Name":"McComb Sound","Neighborhood":"","type":"Studios","Address":"2230 1st Ave South Seattle, WA 98134"},"geometry":{"type":"Point","coordinates":[-122.333694,47.582939]}},{"type":"Feature","properties":{"Name":"Sisko Gallery","Neighborhood":"","type":"Studios","Address":"3126 Elliot Ave Seattle WA 98121"},"geometry":{"type":"Point","coordinates":[-122.3572268,47.6183638]}},{"type":"Feature","properties":{"Name":"SoDo MakerSpace","Neighborhood":"","type":"Studios","Address":"1914 Occidental Ave S Seattle WA 98134"},"geometry":{"type":"Point","coordinates":[-122.33327,47.585333]}},{"type":"Feature","properties":{"Name":"Stormy Muffin Studios","Neighborhood":"","type":"Studios","Address":"219 1st Avenue S #B1 Seattle WA 98104"},"geometry":{"type":"Point","coordinates":[-122.334579,47.600216]}},{"type":"Feature","properties":{"Name":"Sunny Arms Artist Cooperative","Neighborhood":"","type":"Studios","Address":"707 S. Snoqualmie St Seattle WA 98108"},"geometry":{"type":"Point","coordinates":[-122.3237001,47.5616585]}},{"type":"Feature","properties":{"Name":"Urban Work Lofts","Neighborhood":"","type":"Studios","Address":"918 S Horton St Seattle WA 98134"},"geometry":{"type":"Point","coordinates":[-122.321154,47.57419]}},{"type":"Feature","properties":{"Name":"Wilder Sound Studios","Neighborhood":"","type":"Studios","Address":"3429 Airport Way S Seattle WA 98134"},"geometry":{"type":"Point","coordinates":[-122.3231882,47.5728531]}}]}